{
    "locationCircle": [
        {
            "id" : 0,
            "regionName" : "Kern County",
            "radius" :  5000,
            "location": {
                "lat": 35.377568,
                "lng": -119.021375
            }
        },
        {
            "id" : 1,
            "regionName" : "Kings County",
            "radius" :  3000,
            "location": {
                "lat": 36.079996,
                "lng": -119.818643
            }
        },
        {
            "id": 2,
            "regionName": "Los Angeles County",
            "radius": 20000,
            "location": {
                "lat": 34.269816,
                "lng": -118.186455
            }
        },
        {
            "id": 3,
            "regionName": "Orange County",
            "radius": 5000,
            "location": {
                "lat": 33.708463,
                "lng": -117.748505
            }
        },
        {
            "id": 4,
            "regionName": "Riverside County",
            "radius": 6500,
            "location": {
                "lat": 33.719604,
                "lng": -115.968086
            }
        },
        {
            "id": 5,
            "regionName": "San Bernardino County",
            "radius": 4700,
            "location": {
                "lat": 34.900924,
                "lng": -116.274106
            }
        },
        {
            "id": 6,
            "regionName": "Santa Barbara County",
            "radius": 5000,
            "location": {
                "lat": 34.759871,
                "lng": -120.054619
            }
        },
        {
            "id": 7,
            "regionName": "Tulare County",
            "radius": 8000,
            "location": {
                "lat": 36.261492,
                "lng": -118.864966
            }
        },
        {
            "id": 8,
            "regionName": "Ventura County",
            "radius": 5000,
            "location": {
                "lat": 34.468752,
                "lng": -119.072820
            }
        }
    ]
}