{
    "locationCircle": [
        {
            "id" : 0,
            "regionName" : "Kern County",
            "radius" :  15000,
            "location": {
                "lat": 35.377568,
                "lng": -119.021375
            }
        },
        {
            "id" : 1,
            "regionName" : "Kings County",
            "radius" :  25000,
            "location": {
                "lat": 36.079996,
                "lng": -119.818643
            }
        },
        {
            "id": 2,
            "regionName": "Los Angeles County",
            "radius": 25000,
            "location": {
                "lat": 34.055145,
                "lng": -118.241936
            }
        },
        {
            "id": 3,
            "regionName": "Orange County",
            "radius": 20000,
            "location": {
                "lat": 33.708463,
                "lng": -117.748505
            }
        },
        {
            "id": 4,
            "regionName": "Riverside County",
            "radius": 15500,
            "location": {
                "lat": 33.976072,
                "lng": -117.372589
            }
        },
        {
            "id": 5,
            "regionName": "San Bernardino County",
            "radius": 10000,
            "location": {
                "lat": 34.114589,
                "lng": -117.292717
            }
        },
        {
            "id": 6,
            "regionName": "Santa Barbara County",
            "radius": 6000,
            "location": {
                "lat": 34.422320,
                "lng": -119.700754
            }
        },
        {
            "id": 7,
            "regionName": "Tulare County",
            "radius": 10000,
            "location": {
                "lat": 36.311364,
                "lng": -119.313657
            }
        },
        {
            "id": 8,
            "regionName": "Ventura County",
            "radius": 8000,
            "location": {
                "lat": 34.279746,
                "lng": -119.293742
            }
        }
    ]
}